City_ID,City,Cloudiness,Country,Date,Humidity,Lat,Lng,Max Temp,Wind Speed
0,chuy,41,UY,1582915169,29,-33.7,-53.46,88.77,3.96
1,airai,100,TL,1582915169,85,-8.93,125.41,69.01,5.23
2,punta arenas,79,CL,1582915169,51,-53.15,-70.92,59.0,25.28
3,kawalu,99,ID,1582915169,91,-7.38,108.21,72.09,2.55
4,kavieng,65,PG,1582915169,72,-2.57,150.8,84.11,3.87
5,coquimbo,20,CL,1582915169,72,-29.95,-71.34,66.2,11.41
6,pulheim,75,DE,1582915169,68,51.0,6.8,44.01,17.22
7,codrington,100,AU,1582915169,84,-38.27,141.97,60.96,12.44
8,cherskiy,100,RU,1582915169,96,68.75,161.3,3.16,12.82
9,vaini,20,TO,1582915169,100,-21.2,-175.2,75.2,3.36
10,puerto ayora,40,EC,1582915169,70,-0.74,-90.35,86.0,20.8
11,kapaa,20,US,1582915169,60,22.08,-159.32,73.4,24.16
12,rundu,100,NA,1582915169,78,-17.93,19.77,71.6,11.41
13,arraial do cabo,75,BR,1582915169,88,-22.97,-42.03,75.2,5.82
14,batemans bay,100,AU,1582915169,89,-35.72,150.18,63.0,1.01
15,new norfolk,57,AU,1582915169,58,-42.78,147.06,59.0,18.34
16,lata,60,PT,1582915170,72,40.16,-8.33,59.0,11.41
17,avarua,58,CK,1582915170,83,-21.21,-159.78,80.6,4.7
18,pandhurna,0,IN,1582915170,27,21.6,78.52,73.76,4.68
19,angoche,97,MZ,1582915170,93,-16.23,39.91,77.09,4.88
20,sedona,1,US,1582915170,24,34.87,-111.76,61.0,4.7
21,dingle,95,PH,1582915170,89,11.0,122.67,73.74,11.77
22,jamestown,90,US,1582915170,79,42.1,-79.24,26.6,20.8
23,saint george,1,US,1582915170,45,37.1,-113.58,55.99,3.18
24,gushikawa,1,JP,1582915170,51,26.35,127.87,66.2,5.82
25,port blair,72,IN,1582915170,79,11.67,92.75,79.92,13.06
26,mataura,47,NZ,1582915170,97,-46.19,168.86,42.8,2.06
27,hilo,40,US,1582915170,82,19.73,-155.09,68.0,5.82
28,yellowknife,90,CA,1582915040,77,62.46,-114.35,1.0,18.34
29,dikson,100,RU,1582915170,92,73.51,80.55,6.94,6.04
30,poum,89,NC,1582915170,81,-20.23,164.02,81.9,18.21
31,fairbanks,20,US,1582915170,73,64.84,-147.72,-15.0,1.39
32,carmen,90,MX,1582915168,77,18.63,-91.83,69.8,10.29
33,geraldton,75,AU,1582915170,83,-28.77,114.6,71.6,6.93
34,mezhdurechensk,100,RU,1582915170,91,53.69,88.06,22.44,10.31
35,carnarvon,40,AU,1582915171,88,-24.87,113.63,77.0,16.11
36,korhogo,59,CI,1582915171,13,9.45,-5.63,94.86,2.37
37,suzhou,90,CN,1582914950,93,31.31,120.62,52.0,4.47
38,matam,5,SN,1582915171,13,15.62,-13.33,100.4,4.7
39,huarmey,3,PE,1582915171,47,-10.07,-78.15,86.11,13.04
40,kittery,40,US,1582915029,27,43.09,-70.74,39.0,18.34
41,victoria,20,HK,1582915041,77,22.29,114.16,71.01,8.05
42,sembakung,100,ID,1582915171,88,3.82,117.25,76.59,4.0
43,mporokoso,100,ZM,1582915171,99,-9.37,30.12,63.7,4.41
44,kiruna,100,SE,1582915171,78,67.86,20.23,14.0,20.8
45,fortuna,90,US,1582915171,93,40.6,-124.16,51.01,4.7
46,balabac,86,PH,1582915171,83,7.99,117.06,79.48,15.28
47,opelousas,1,US,1582915171,38,30.53,-92.08,64.4,10.29
48,albany,75,US,1582915171,34,42.6,-73.97,35.01,17.22
49,bluff,49,NZ,1582915171,80,-46.6,168.33,48.27,8.03
50,ushuaia,40,AR,1582915171,62,-54.8,-68.3,55.4,32.21
51,chiang klang,32,TH,1582915171,50,19.29,100.86,68.59,2.82
52,rikitea,97,PF,1582915171,75,-23.12,-134.97,79.3,10.54
53,castro,0,BR,1582915171,39,-24.79,-50.01,77.52,5.53
54,te anau,47,NZ,1582915171,70,-45.42,167.72,46.99,8.46
55,visnes,75,NO,1582915171,86,59.36,5.22,41.0,11.41
56,prince rupert,90,CA,1582915171,93,54.32,-130.32,39.2,5.82
57,deniliquin,46,AU,1582915072,69,-35.53,144.97,57.69,4.23
58,kashi,100,CN,1582915172,21,39.45,75.98,50.0,8.95
59,jaisalmer,9,IN,1582915172,32,26.91,70.92,77.65,20.24
60,cidreira,0,BR,1582915172,63,-30.18,-50.21,72.63,9.31
61,tasiilaq,75,GL,1582915172,47,65.61,-37.64,14.0,2.24
62,cairns,99,AU,1582915172,88,-16.92,145.77,78.8,2.24
63,pundaguitan,100,PH,1582915172,86,6.37,126.17,78.67,11.05
64,port alfred,90,ZA,1582915173,78,-33.59,26.89,64.99,1.01
65,bambous virieux,40,MU,1582915173,94,-20.34,57.76,77.0,4.7
66,hobart,15,AU,1582915173,58,-42.88,147.33,59.0,18.34
67,norman wells,75,CA,1582915040,69,65.28,-126.83,-13.0,8.05
68,ponta do sol,20,PT,1582915173,59,32.67,-17.1,66.2,4.7
69,provideniya,72,RU,1582915173,86,64.38,-173.3,-9.9,1.14
70,busselton,3,AU,1582915173,66,-33.65,115.33,70.0,4.63
71,carbondale,90,US,1582915173,52,37.73,-89.22,45.0,9.17
72,broken hill,1,AU,1582915173,51,-31.95,141.43,62.6,3.36
73,hervey bay,0,AU,1582915173,94,-25.3,152.85,73.99,6.93
74,tevriz,100,RU,1582915173,98,57.51,72.4,30.04,2.39
75,santa maria,40,BR,1582915173,37,-29.68,-53.81,86.0,8.05
76,burnie,38,AU,1582915173,79,-41.07,145.92,55.0,3.0
77,ancud,75,CL,1582915173,77,-41.87,-73.82,62.6,6.93
78,jacmel,20,HT,1582915173,55,18.23,-72.53,86.0,13.87
79,butaritari,79,KI,1582915173,82,3.07,172.79,83.89,14.81
80,iracoubo,54,GF,1582915174,70,5.48,-53.2,79.3,11.68
81,lima,52,PE,1582915063,55,-12.04,-77.03,86.0,13.87
82,husavik,90,IS,1582915174,92,66.04,-17.34,28.4,9.17
83,broome,90,US,1582915174,45,42.25,-75.83,30.0,16.11
84,tual,100,ID,1582915174,79,-5.67,132.75,83.8,7.81
85,los llanos de aridane,20,ES,1582915122,64,28.66,-17.92,68.0,4.7
86,jibuti,1,DJ,1582915174,78,11.5,42.5,78.8,11.61
87,asfi,84,MA,1582915174,63,32.3,-9.24,63.97,6.38
88,hithadhoo,100,MV,1582915174,76,-0.6,73.08,82.83,14.67
89,cockburn town,40,TC,1582914921,65,21.46,-71.14,82.4,10.29
90,avera,1,US,1582915174,34,33.19,-82.53,57.2,11.41
91,ontario,1,US,1582915054,14,34.06,-117.65,81.0,3.56
92,port lincoln,62,AU,1582914963,85,-34.73,135.87,61.72,7.65
93,kashary,100,RU,1582915174,81,49.04,41.01,37.51,21.79
94,san patricio,5,MX,1582915174,70,19.22,-104.7,84.2,4.68
95,saskylakh,0,RU,1582915174,74,71.92,114.08,-1.26,12.12
96,salamanca,85,ES,1582914973,43,40.83,-6.0,55.4,12.75
97,atuona,23,PF,1582915174,78,-9.8,-139.03,81.61,14.2
98,pedraza,18,CO,1582915174,32,10.19,-74.92,95.68,7.27
99,qaanaaq,98,GL,1582915174,92,77.48,-69.36,-17.41,4.05
100,talara,78,PE,1582915174,100,-4.58,-81.27,62.6,13.87
101,barrow,1,US,1582915174,76,71.29,-156.79,-9.4,16.11
102,severo-kurilsk,99,RU,1582915174,91,50.68,156.12,20.21,8.84
103,pangnirtung,20,CA,1582915174,67,66.15,-65.71,-23.8,3.36
104,deputatskiy,92,RU,1582915175,83,69.3,139.9,-0.29,5.7
105,zyryanka,49,RU,1582915175,99,65.75,150.85,-3.32,7.52
106,rawlins,1,US,1582915149,50,41.79,-107.24,35.6,24.16
107,haikou,40,CN,1582915175,94,20.05,110.34,69.8,4.47
108,kodiak,1,US,1582915175,62,57.79,-152.41,19.4,10.96
109,santa marta,20,CO,1582915175,66,11.24,-74.2,87.8,5.82
110,mount gambier,90,AU,1582915175,100,-37.83,140.77,55.4,4.7
111,kahului,40,US,1582914929,73,20.89,-156.47,69.8,16.11
112,moron,0,AR,1582915175,33,-34.65,-58.62,93.0,5.82
113,alice springs,14,AU,1582915175,34,-23.7,133.88,68.0,10.8
114,hermanus,57,ZA,1582915175,74,-34.42,19.23,69.01,10.0
115,harper,99,LR,1582914999,88,4.38,-7.72,81.64,3.76
116,kruisfontein,66,ZA,1582915175,77,-34.0,24.73,59.05,11.01
117,bengkulu,100,ID,1582915175,88,-3.8,102.27,76.01,3.29
118,east london,75,ZA,1582915175,93,-33.02,27.91,60.8,3.36
119,faanui,100,PF,1582915175,76,-16.48,-151.75,81.57,11.95
120,chau doc,50,VN,1582915090,77,10.7,105.12,72.64,4.47
121,belyy yar,78,RU,1582915175,68,53.6,91.39,24.8,6.71
122,manacapuru,75,BR,1582915175,88,-3.3,-60.62,80.6,4.7
123,tuktoyaktuk,5,CA,1582915176,73,69.45,-133.04,-31.0,5.82
124,naigarhi,69,IN,1582915176,52,24.78,81.78,66.58,6.85
125,bar harbor,90,US,1582915176,34,44.39,-68.2,35.01,16.11
126,kumbo,90,CM,1582915176,26,6.2,10.67,79.97,5.08
127,talnakh,40,RU,1582915176,72,69.49,88.4,10.4,20.13
128,yantal,0,RU,1582915176,97,56.85,105.25,1.92,2.89
129,exu,69,BR,1582915176,83,-7.51,-39.72,78.73,4.0
130,saint-augustin,100,CA,1582915176,93,51.23,-58.65,26.11,29.57
131,plettenberg bay,11,ZA,1582915176,78,-34.05,23.37,62.71,15.21
132,butwal,18,NP,1582915176,61,27.7,83.45,63.84,1.92
133,longyearbyen,20,SJ,1582914879,69,78.22,15.64,-13.0,4.7
134,odessa,99,UA,1582914929,86,46.48,30.73,37.4,6.71
135,labuan,75,MY,1582915176,94,5.28,115.24,80.6,8.05
136,vostok,59,RU,1582915176,93,46.49,135.88,7.95,5.03
137,leningradskiy,98,RU,1582915176,78,69.38,178.42,6.48,14.38
138,north bend,90,US,1582915176,100,43.41,-124.22,46.0,5.82
139,kungurtug,97,RU,1582915176,94,50.6,97.52,5.74,4.32
140,eyl,29,SO,1582915176,77,7.98,49.82,78.1,20.89
141,sola,71,VU,1582915176,75,-13.88,167.55,84.94,7.47
142,faya,0,SA,1582915176,31,18.39,42.45,66.2,4.7
143,cranbrook,75,CA,1582915176,87,49.5,-115.77,44.6,10.29
144,dharchula,55,IN,1582915176,50,29.85,80.53,35.56,8.59
145,cabedelo,40,BR,1582915177,66,-6.98,-34.83,87.8,11.41
146,saalfeld,100,DE,1582915177,74,50.65,11.37,39.0,10.29
147,torrington,75,US,1582915050,37,41.8,-73.12,39.99,12.75
148,pemangkat,100,ID,1582915177,90,1.17,108.97,76.68,9.22
149,westport,40,US,1582914934,29,41.14,-73.36,42.01,19.46
150,kvam,33,NO,1582915177,86,61.67,9.69,8.42,2.82
151,bethel,20,US,1582915026,31,41.37,-73.41,41.0,16.11
152,buin,0,CL,1582915177,22,-33.73,-70.75,91.4,8.05
153,tuatapere,58,NZ,1582915177,97,-46.13,167.68,40.48,2.82
154,porto santo,20,PT,1582915177,59,33.07,-16.34,66.2,8.05
155,kaitangata,44,NZ,1582915177,71,-46.28,169.85,51.01,8.99
156,port-cartier,90,CA,1582915177,79,50.03,-66.87,26.01,9.17
157,bathsheba,40,BB,1582915177,58,13.22,-59.52,84.2,17.22
158,huanren,71,CN,1582915177,98,41.26,125.37,19.33,2.15
159,udachnyy,0,RU,1582915177,77,66.42,112.4,-2.2,6.71
160,havre-saint-pierre,90,CA,1582915177,85,50.23,-63.6,21.2,19.46
161,klishkivtsi,40,UA,1582915177,60,48.43,26.26,41.0,6.71
162,tinyahuarco,94,PE,1582915177,56,-10.75,-76.3,50.14,2.17
163,ternuvate,31,UA,1582915177,74,47.83,36.13,37.4,4.47
164,kiunga,54,PG,1582915177,99,-6.12,141.29,73.81,1.39
165,belaya gora,99,RU,1582915178,83,68.53,146.42,6.55,9.93
166,labuhan,100,ID,1582915178,95,-6.88,112.21,75.45,3.62
167,bushehr,0,IR,1582915178,72,28.97,50.84,64.4,6.93
168,coromandel,100,BR,1582915178,86,-18.47,-47.2,73.54,4.72
169,port hedland,13,AU,1582915178,94,-20.32,118.57,82.4,8.05
170,khandbari,64,NP,1582915178,65,27.37,87.2,39.74,4.74
171,aguascalientes,5,MX,1582914908,25,21.88,-102.3,66.2,5.82
172,comodoro rivadavia,12,AR,1582915178,43,-45.87,-67.5,71.6,11.41
173,ribeira grande,20,PT,1582915178,72,38.52,-28.7,64.4,12.75
174,cayenne,90,GF,1582915178,65,4.93,-52.33,82.4,11.41
175,touros,40,BR,1582915178,52,-5.2,-35.46,89.6,21.92
176,shimoda,75,JP,1582915178,75,34.67,138.95,42.8,1.12
177,ilulissat,40,GL,1582915178,43,69.22,-51.1,-7.6,4.7
178,port elizabeth,72,ZA,1582915178,68,-33.92,25.57,64.4,6.93
179,vila,56,PT,1582915178,76,42.03,-8.16,57.0,10.29
180,ambilobe,100,MG,1582915178,91,-13.2,49.05,78.51,2.95
181,georgetown,20,MY,1582914926,88,5.41,100.34,82.4,3.36
182,at-bashi,92,KG,1582915178,87,41.17,75.81,12.87,6.6
183,kloulklubed,64,PW,1582915178,78,7.04,134.26,82.26,21.12
184,cape town,26,ZA,1582915108,46,-33.93,18.42,73.0,17.22
185,upernavik,78,GL,1582915178,85,72.79,-56.15,-18.63,3.49
186,rockland,40,US,1582915179,29,41.17,-74.05,41.0,14.99
187,vao,67,NC,1582915179,85,-22.67,167.48,79.99,17.43
188,mar del plata,77,AR,1582915179,66,-38.0,-57.56,64.99,10.0
189,shubarshi,100,KZ,1582915179,68,48.59,57.19,31.32,22.1
190,panaba,67,MX,1582915179,59,21.28,-88.27,69.8,10.25
191,mahebourg,40,MU,1582915179,94,-20.41,57.7,77.0,4.7
192,white center,90,US,1582915083,100,47.52,-122.35,46.0,9.17
193,cabinda,20,AO,1582915056,74,-5.55,12.2,86.0,8.05
194,kalmunai,50,LK,1582915179,74,7.42,81.82,80.94,14.25
195,torbay,90,CA,1582914913,88,47.67,-52.73,34.0,5.82
196,bama,35,NG,1582915179,12,11.52,13.69,88.05,11.52
197,yerofey pavlovich,93,RU,1582915179,94,53.97,121.97,3.87,2.86
198,macomer,1,IT,1582915179,71,40.26,8.77,51.8,3.36
199,tevaitoa,100,PF,1582915179,75,-16.78,-151.5,81.88,10.4
200,rocha,22,UY,1582915179,23,-34.48,-54.33,88.79,16.13
201,mercedes,0,AR,1582915064,35,-34.65,-59.43,93.0,1.99
202,thompson,90,CA,1582915179,67,55.74,-97.86,17.6,5.82
203,nemuro,9,JP,1582915179,65,43.32,145.57,19.4,13.0
204,zeya,0,RU,1582915179,84,53.75,127.27,-1.34,2.55
205,saint-leu,20,RE,1582915179,78,-21.15,55.28,80.6,3.36
206,dzhebariki-khaya,9,RU,1582915179,99,62.22,135.8,-19.84,1.16
207,bredasdorp,95,ZA,1582915179,59,-34.53,20.04,66.2,16.11
208,west wendover,1,US,1582915068,55,40.74,-114.07,39.2,5.82
209,kutum,0,SD,1582915179,20,14.2,24.67,75.07,12.24
210,filingue,0,NE,1582915180,12,14.35,3.32,82.85,4.61
211,misratah,0,LY,1582915076,74,32.38,15.09,62.47,11.88
212,saint anthony,1,US,1582915158,37,45.02,-93.22,26.01,4.7
213,flinders,90,AU,1582915180,82,-34.58,150.86,66.99,4.54
214,kozan,75,TR,1582915180,93,37.46,35.82,57.2,2.55
215,nikolskoye,90,RU,1582915180,86,59.7,30.79,26.6,13.42
216,mecca,0,SA,1582914955,56,21.43,39.83,75.69,3.51
217,griffith,75,US,1582915180,58,41.53,-87.42,28.99,7.72
218,kem,100,RU,1582915180,87,64.96,34.58,21.85,9.33
219,kamenka,100,RU,1582915180,91,51.32,42.77,35.01,8.01
220,den helder,90,NL,1582915180,93,52.96,4.76,37.99,25.28
221,khatanga,0,RU,1582915180,87,71.97,102.5,-8.5,4.68
222,celestun,90,MX,1582915180,69,20.87,-90.4,69.12,17.22
223,lujan,3,AR,1582915180,52,-34.57,-59.1,93.0,10.29
224,cowra,11,AU,1582915180,86,-33.83,148.68,54.0,1.99
225,moussoro,0,TD,1582915180,12,13.64,16.49,87.28,10.29
226,clyde,90,US,1582915180,58,41.3,-82.98,28.0,20.8
227,itarema,83,BR,1582915180,72,-2.92,-39.92,84.78,8.59
228,gladstone,0,AU,1582915180,83,-23.85,151.25,75.2,3.36
229,evansville,90,US,1582915180,41,37.97,-87.56,46.4,8.05
230,marzuq,0,YE,1582915180,68,14.4,46.47,65.79,4.05
231,clyde river,20,CA,1582915181,67,70.47,-68.59,-23.8,4.7
232,bata,93,GQ,1582915181,87,1.86,9.77,77.68,3.53
233,sol-iletsk,100,RU,1582915181,81,51.16,54.99,32.34,15.61
234,quatre cocos,40,MU,1582915181,94,-20.21,57.76,77.0,4.7
235,port pirie,24,AU,1582915182,82,-33.18,138.02,64.4,5.82
236,narsaq,5,GL,1582915182,33,60.92,-46.05,15.8,0.81
237,juneau,90,US,1582914904,93,58.3,-134.42,37.4,8.05
238,bourail,97,NC,1582915182,90,-21.57,165.48,74.07,3.74
239,escarcega,79,MX,1582915182,46,18.61,-90.75,76.41,2.55
240,sorong,100,ID,1582915182,99,-0.88,131.25,72.97,2.13
241,vinh long,18,VN,1582914993,94,10.25,105.97,75.2,2.24
242,chiang mai,40,TH,1582915182,60,18.79,98.98,78.01,1.25
243,pandan,51,PH,1582915182,72,14.05,124.17,78.08,10.69
244,sidi ali,18,DZ,1582915182,43,36.1,0.42,59.04,4.23
245,katete,100,UG,1582915182,90,-0.78,29.75,61.16,1.68
246,bilibino,100,RU,1582915182,100,68.05,166.44,-10.37,3.67
247,tingi,100,TZ,1582915182,82,-11.3,35.03,69.19,1.41
248,lewisporte,90,CA,1582915182,92,49.25,-55.05,30.99,18.34
249,skibbereen,90,IE,1582915182,100,51.55,-9.27,50.0,14.99
250,saint-philippe,20,RE,1582915182,78,-21.36,55.77,80.6,3.36
251,bambanglipuro,94,ID,1582915182,88,-7.95,110.28,76.5,3.24
252,nouakchott,3,MR,1582915046,5,18.09,-15.98,95.0,11.41
253,chokurdakh,100,RU,1582915183,85,70.63,147.92,14.38,12.64
254,launceston,17,AU,1582915183,81,-41.45,147.17,55.99,11.41
255,nizwa,0,OM,1582915183,39,22.93,57.53,67.75,1.07
256,nara,99,JP,1582915183,70,34.69,135.8,46.4,4.7
257,constantine,0,DZ,1582914923,47,36.37,6.61,57.2,4.47
258,nantucket,1,US,1582915183,44,41.28,-70.1,39.2,27.51
259,alofi,75,NU,1582915183,94,-19.06,-169.92,78.8,8.05
260,bukan,100,IR,1582915161,65,36.52,46.21,38.77,4.43
261,lavrentiya,7,RU,1582915183,89,65.58,-171.0,-14.49,2.77
262,muriwai beach,34,NZ,1582915183,82,-36.82,174.45,66.2,6.93
263,buchanan,36,LR,1582915183,73,5.88,-10.05,83.64,6.22
264,porto novo,20,BJ,1582915183,74,6.5,2.6,86.0,10.29
265,kangaatsiaq,100,GL,1582915183,88,68.31,-53.46,-9.49,7.96
266,watsa,90,CD,1582915111,39,3.04,29.54,76.17,2.91
267,kuytun,100,RU,1582915183,91,54.34,101.5,10.09,4.79
268,kabompo,100,ZM,1582915183,96,-13.59,24.2,65.64,2.75
269,hovd,0,MN,1582915183,52,48.01,91.64,16.57,2.59
270,borogontsy,9,RU,1582915183,100,62.67,131.17,-12.86,0.49
271,planaltina,90,BR,1582915183,88,-15.45,-47.61,71.6,6.93
272,maniitsoq,0,GL,1582915183,62,65.42,-52.9,6.15,8.25
273,kavaratti,16,IN,1582915184,74,10.57,72.64,82.67,13.58
274,thinadhoo,100,MV,1582915184,74,0.53,72.93,82.96,8.19
275,daru,34,PG,1582915184,93,-9.08,143.21,76.96,3.18
276,alenquer,20,BR,1582915184,66,-1.94,-54.74,87.8,8.05
277,havelock,1,US,1582915184,27,34.88,-76.9,54.0,11.41
278,praia da vitoria,20,PT,1582914963,64,38.73,-27.07,68.0,17.67
279,nuuk,40,GL,1582915148,71,64.18,-51.72,8.6,9.17
280,honiara,20,SB,1582915147,94,-9.43,159.95,73.4,6.93
281,mount isa,97,AU,1582915184,33,-20.73,139.5,75.2,9.17
282,caxito,75,AO,1582915184,74,-8.58,13.66,80.6,10.29
283,matagami,90,CA,1582915184,85,49.75,-77.63,19.4,10.29
284,nago,1,JP,1582915184,51,26.59,127.98,68.0,5.82
285,waingapu,98,ID,1582915184,79,-9.66,120.26,84.29,18.95
286,saurimo,36,AO,1582915185,91,-9.66,20.39,69.22,1.79
287,kapra,0,IN,1582915185,61,17.48,78.56,77.0,5.82
288,la ronge,20,CA,1582915185,52,55.1,-105.28,41.0,13.87
289,cabo san lucas,5,MX,1582914936,60,22.89,-109.91,81.0,3.36
290,souillac,40,MU,1582915185,94,-20.52,57.52,77.0,4.7
291,yulara,0,AU,1582915185,22,-25.24,130.99,78.8,10.29
292,nanortalik,0,GL,1582915185,60,60.14,-45.24,18.88,12.68
293,the valley,20,AI,1582915185,69,18.22,-63.06,84.2,10.29
294,dicabisagan,4,PH,1582915186,86,17.08,122.42,71.87,3.94
295,paamiut,0,GL,1582915186,56,61.99,-49.67,3.54,6.17
296,saldanha,1,ZA,1582915186,28,-33.01,17.94,84.2,17.22
297,zhezkazgan,0,KZ,1582915186,87,47.8,67.71,13.1,7.67
298,puksoozero,97,RU,1582915186,96,62.59,40.61,22.6,6.06
299,sayyan,31,YE,1582915186,30,15.17,44.32,56.89,3.02
300,ahipara,42,NZ,1582915186,100,-35.17,173.17,59.0,2.84
301,cham,1,DE,1582915186,92,49.24,12.68,35.01,2.46
302,buraydah,33,SA,1582915186,35,26.33,43.98,69.8,6.93
303,uige,33,AO,1582915186,92,-7.61,15.06,70.81,1.36
304,nova londrina,26,BR,1582915186,70,-22.77,-52.98,79.3,6.42
305,pacific grove,1,US,1582915156,55,36.62,-121.92,72.0,6.02
306,adwa,45,ET,1582915186,49,14.16,38.9,66.2,5.99
307,qaqortoq,5,GL,1582915186,33,60.72,-46.03,15.8,4.03
308,taksimo,62,RU,1582915186,97,56.34,114.88,-4.94,1.57
309,penzance,100,GB,1582915186,100,50.12,-5.54,52.0,32.21
310,pisco,75,PE,1582915186,30,-13.7,-76.22,79.0,10.29
311,tiksi,25,RU,1582915186,85,71.69,128.87,0.27,13.33
312,tiarei,75,PF,1582915186,70,-17.53,-149.33,84.2,4.7
313,carnduff,57,CA,1582915186,93,49.17,-101.8,23.0,4.0
314,manjo,54,CM,1582915187,58,4.84,9.82,78.58,1.99
315,guiratinga,94,BR,1582915187,72,-16.35,-53.76,82.89,5.5
316,parava,90,RO,1582915187,75,46.3,27.0,41.0,2.24
317,yerbogachen,94,RU,1582915187,100,61.28,108.01,-2.94,1.7
318,basco,67,PH,1582915187,80,20.45,121.97,76.14,19.19
319,ocos,40,GT,1582915187,62,14.51,-92.19,91.4,9.17
320,pevek,100,RU,1582915187,94,69.7,170.31,0.14,5.17
321,praia,0,CV,1582915149,37,14.92,-23.51,84.2,21.92
322,porto walter,97,BR,1582915187,85,-8.27,-72.74,82.67,2.08
323,goulburn,60,AU,1582915187,90,-34.75,149.72,54.0,5.28
324,yar-sale,55,RU,1582915187,91,66.83,70.83,6.64,9.51
325,namatanai,98,PG,1582915187,77,-3.67,152.43,83.41,3.69
326,akdagmadeni,95,TR,1582915187,95,39.66,35.88,30.31,5.46
327,great bend,1,US,1582915187,40,38.36,-98.76,55.4,13.87
328,saint helens,75,GB,1582915187,93,53.45,-2.73,53.01,8.05
329,caravelas,42,BR,1582915187,77,-17.71,-39.25,82.06,9.37
330,laguna,1,US,1582915187,51,38.42,-121.42,69.01,2.89
331,kaduna,16,NG,1582915187,15,10.52,7.44,89.47,6.15
332,atambua,100,ID,1582915187,84,-9.11,124.89,76.21,2.1
333,ruidoso,1,US,1582915187,9,33.33,-105.67,62.01,8.05
334,mongagua,90,BR,1582915188,94,-24.09,-46.62,73.0,3.36
335,vestmannaeyjar,20,IS,1582915188,86,63.44,-20.27,33.8,12.75
336,yamasaki,99,JP,1582915188,80,35.0,134.55,42.01,2.33
337,yatou,21,CN,1582915188,90,37.15,122.38,38.3,7.34
338,asau,90,RO,1582915188,75,46.43,26.4,41.0,2.24
339,taganak,40,PH,1582915188,88,6.08,118.3,80.6,6.93
340,constitucion,10,CL,1582915188,50,-35.33,-72.42,72.54,10.98
341,makat,100,KZ,1582915188,42,47.65,53.35,42.76,23.38
342,chunskiy,98,RU,1582915188,97,56.08,99.63,20.28,2.82
343,general salgado,86,BR,1582915188,77,-20.65,-50.36,81.05,6.87
344,payo,100,ID,1582915188,97,-3.75,103.64,70.45,0.89
345,de aar,0,ZA,1582915188,53,-30.65,24.01,64.4,27.2
346,medina,0,SA,1582914950,22,24.47,39.61,80.6,8.05
347,xiaoweizhai,100,CN,1582915188,97,26.19,107.51,59.22,4.7
348,katsuura,75,JP,1582915188,70,35.13,140.3,46.99,5.82
349,yilan,100,TW,1582915188,88,24.76,121.75,69.01,1.12
350,posse,100,BR,1582915188,63,-14.09,-46.37,84.87,4.07
351,hofn,75,IS,1582915188,65,64.25,-15.21,33.8,11.41
352,dinghai,100,CN,1582915188,93,26.28,119.79,55.4,4.12
353,abaran,69,ES,1582915188,45,38.21,-1.4,64.4,8.05
354,novobirilyussy,100,RU,1582915188,92,56.95,90.67,21.33,9.89
355,lensk,54,RU,1582915189,98,60.73,114.93,0.37,2.64
356,luau,93,AO,1582915189,96,-10.71,22.22,69.15,2.77
357,noshiro,100,JP,1582915189,60,40.2,140.02,36.64,3.11
358,north bay,90,CA,1582915189,65,46.32,-79.47,10.99,11.41
359,kismayo,25,SO,1582914988,84,-0.36,42.55,81.23,12.77
360,dubbo,7,AU,1582915189,77,-32.25,148.62,62.6,14.99
361,shingu,100,JP,1582915189,74,33.73,135.98,46.49,7.67
362,bubaque,11,GW,1582915189,69,11.28,-15.83,80.29,14.83
363,saint-michel-des-saints,100,CA,1582915189,6,46.68,-73.92,19.99,1.01
364,grindavik,75,IS,1582915189,69,63.84,-22.43,32.0,8.05
365,usvyaty,81,RU,1582915189,81,55.75,30.75,28.99,8.23
366,vila do maio,2,CV,1582915189,37,15.13,-23.22,84.2,21.92
367,salinas,1,US,1582915187,55,36.68,-121.66,72.0,5.08
368,cap-aux-meules,20,CA,1582915189,68,47.38,-61.86,28.4,29.97
369,tilichiki,0,RU,1582915189,84,60.47,166.1,-9.08,9.8
370,beloha,67,MG,1582915189,80,-25.17,45.05,72.28,4.56
371,mwinilunga,100,ZM,1582915189,96,-11.74,24.43,63.32,2.13
372,abaetetuba,75,BR,1582915189,88,-1.72,-48.88,80.6,4.7
373,excelsior springs,1,US,1582915189,61,39.34,-94.23,51.01,9.17
374,fenelon falls,90,CA,1582915189,85,44.53,-78.75,28.99,4.7
375,batticaloa,78,LK,1582915189,90,7.71,81.69,72.41,1.83
376,katobu,100,ID,1582915189,90,-4.94,122.53,76.55,2.95
377,baruun-urt,92,MN,1582915189,75,46.68,113.28,5.47,3.58
378,sorland,75,NO,1582915189,92,67.67,12.69,30.2,27.51
379,saint-pierre,20,RE,1582915190,78,-21.34,55.48,80.6,3.36
380,galle,94,LK,1582915190,76,6.04,80.22,80.04,14.14
381,lebu,0,CL,1582915190,49,-37.62,-73.65,72.48,11.43
382,hirara,100,JP,1582915123,77,24.8,125.28,71.89,11.32
383,winslow,1,US,1582915156,39,35.02,-110.7,50.0,4.7
384,bestobe,24,KZ,1582915190,84,52.5,73.1,25.18,18.52
385,urumqi,4,CN,1582915190,86,43.8,87.6,28.4,4.47
386,kirkenaer,77,NO,1582915190,86,60.46,12.06,32.0,9.17
387,cap malheureux,40,MU,1582915190,94,-19.98,57.61,77.0,4.7
388,puri,0,IN,1582915190,88,19.8,85.85,69.8,4.18
389,makarov,4,RU,1582915190,81,48.63,142.8,7.0,1.95
390,kommunisticheskiy,40,RU,1582915190,91,61.68,64.48,14.22,4.36
391,tingo maria,75,PE,1582915190,62,-9.29,-76.01,86.0,6.93
392,tarapur,0,IN,1582915190,66,19.85,72.7,78.69,2.26
393,kholtoson,100,RU,1582915190,84,50.3,103.31,12.51,1.86
394,maragogi,0,BR,1582915190,80,-9.01,-35.22,82.74,13.06
395,moose factory,90,CA,1582915190,72,51.26,-80.61,12.2,14.99
396,zelenogradsk,75,RU,1582914950,93,54.96,20.48,35.6,11.18
397,barrhead,90,GB,1582915190,100,55.8,-4.39,41.0,3.36
398,half moon bay,75,US,1582914914,72,37.46,-122.43,69.01,5.82
399,andenes,75,NO,1582915190,86,69.31,16.12,30.99,9.17
400,yenagoa,68,NG,1582915191,62,4.92,6.26,87.33,10.49
401,taoudenni,0,ML,1582915191,7,22.68,-3.98,84.04,10.51
402,luderitz,0,NA,1582915092,64,-26.65,15.16,71.6,14.99
403,gisborne,2,NZ,1582915176,77,-38.65,178.0,66.99,5.01
404,clonakilty,90,IE,1582915191,100,51.62,-8.87,50.0,14.99
405,suleja,17,NG,1582915191,26,9.18,7.18,96.8,4.7
406,hamilton,75,US,1582915191,51,39.18,-84.53,37.0,10.29
407,yangjiang,100,CN,1582915191,88,21.85,111.97,67.24,0.6
408,tuy hoa,23,VN,1582915149,89,13.08,109.3,75.6,11.36
409,mana,93,GF,1582915191,59,5.66,-53.78,82.62,5.99
410,saint-georges,20,GD,1582915055,62,12.06,-61.75,84.2,17.22
411,ambovombe,71,MG,1582915191,79,-25.17,46.08,73.13,3.18
412,coahuayana,5,MX,1582915191,54,18.73,-103.68,80.6,6.06
413,kalaleh,98,IR,1582915081,71,37.38,55.49,53.6,5.61
414,faro,97,PT,1582915191,72,37.02,-7.93,62.01,5.82
415,salalah,20,OM,1582914936,11,17.02,54.09,82.4,6.93
416,vila franca do campo,20,PT,1582915191,82,37.72,-25.43,64.4,14.99
417,zhigansk,59,RU,1582915191,99,66.77,123.37,-11.78,7.27
418,adelaide,98,AU,1582915063,82,-34.93,138.6,59.0,4.7
419,srednekolymsk,69,RU,1582915191,90,67.45,153.68,5.86,17.31
420,mezen,100,RU,1582915191,83,65.85,44.24,15.78,10.04
421,bulgan,100,MN,1582915191,85,48.81,103.53,8.24,4.85
422,hobyo,0,SO,1582915191,70,5.35,48.53,77.54,14.03
423,kumluca,38,TR,1582915191,83,36.37,30.29,50.02,3.36
424,charagua,75,BO,1582915192,51,-19.8,-63.22,86.0,4.21
425,kikwit,90,CD,1582915192,84,-5.04,18.82,76.71,2.35
426,chicama,6,PE,1582915192,78,-7.84,-79.15,77.0,10.29
427,mehamn,20,NO,1582915192,66,71.04,27.85,23.0,19.46
428,adrar,0,MR,1582915192,5,20.5,-10.07,82.56,6.98
429,yeppoon,4,AU,1582915192,88,-23.13,150.73,77.0,5.82
430,esperance,75,AU,1582915192,82,-33.87,121.9,68.0,25.28
431,naze,100,JP,1582915192,72,28.37,129.48,68.0,10.29
432,khani,75,GE,1582915192,93,41.96,42.96,44.6,8.05
433,maraba,75,BR,1582915192,70,-5.37,-49.12,87.8,5.82
434,muros,20,ES,1582915192,76,42.78,-9.06,55.99,6.93
435,guadalupe y calvo,14,MX,1582915192,14,26.1,-106.97,67.48,5.17
436,madras,40,IN,1582915033,74,13.09,80.28,81.0,9.17
437,lashio,0,MM,1582915192,78,22.93,97.75,55.94,1.52
438,hermosillo,75,MX,1582915192,10,29.07,-110.97,80.01,11.41
439,chama,90,CH,1582915192,45,47.18,8.46,45.0,1.12
440,srandakan,94,ID,1582915192,88,-7.94,110.25,76.5,3.24
441,bose,0,IT,1582915193,27,45.46,8.01,51.8,3.36
442,rupnagar,0,IN,1582915193,71,30.97,76.53,64.36,7.38
443,datong,1,CN,1582915193,57,40.09,113.29,37.15,6.15
444,acapulco,5,MX,1582914963,70,16.86,-99.89,84.2,9.17
445,mathbaria,0,BD,1582915193,70,22.29,89.96,65.16,5.75
446,presidencia roque saenz pena,0,AR,1582915193,23,-26.79,-60.44,96.19,0.49
447,novytsya,75,UA,1582915193,94,48.96,24.34,35.6,4.47
448,seydi,10,TM,1582915193,51,39.48,62.91,47.66,7.94
449,teahupoo,75,PF,1582915193,70,-17.83,-149.27,84.2,4.7
450,eldorado,15,BR,1582915193,54,-23.79,-54.28,84.67,4.74
451,bolshaya sosnova,100,RU,1582915193,98,57.67,54.6,34.29,15.05
452,uruzgan,5,AF,1582915193,74,32.83,66.0,40.19,3.24
453,ola,100,RU,1582915193,72,59.58,151.28,7.27,9.15
454,odemira,82,PT,1582915193,87,37.6,-8.64,62.01,3.0
455,roebourne,0,AU,1582915193,55,-20.78,117.13,86.95,10.13
456,henties bay,67,NA,1582915193,86,-22.12,14.28,64.0,1.01
457,namibe,100,AO,1582915193,77,-15.2,12.15,76.39,10.2
458,verkhnyaya inta,0,RU,1582915193,74,65.98,60.31,9.05,5.91
459,hasaki,75,JP,1582915193,60,35.73,140.83,42.8,6.93
460,jinka,25,ET,1582915193,51,5.65,36.65,78.15,2.82
461,sunndalsora,75,NO,1582915193,69,62.68,8.55,35.6,27.51
462,pingdingshan,9,CN,1582915194,85,33.74,113.3,39.58,2.68
463,aksu,100,CN,1582915194,43,41.12,80.26,45.86,7.16
464,urubicha,0,BO,1582915194,19,-15.38,-62.95,98.74,3.76
465,komsomolskiy,90,UZ,1582915194,75,40.43,71.72,44.6,4.18
466,hambantota,62,LK,1582915194,94,6.12,81.12,77.0,8.05
467,asyut,0,EG,1582915194,27,27.18,31.18,73.4,9.17
468,havoysund,86,NO,1582915194,67,71.0,24.66,23.0,23.04
469,lorrach,46,DE,1582915194,42,47.62,7.66,48.2,8.05
470,kurya,90,RU,1582915194,83,51.6,82.29,23.76,11.32
471,kiama,90,AU,1582915194,82,-34.68,150.87,66.99,4.54
472,mosquera,75,CO,1582915194,37,4.71,-74.23,71.6,5.82
473,lompoc,1,US,1582915194,42,34.64,-120.46,78.01,4.7
474,swinoujscie,75,PL,1582915194,78,53.91,14.25,39.2,3.36
475,lerwick,75,GB,1582915027,75,60.15,-1.15,42.8,14.99
476,babylon,40,US,1582915139,32,40.7,-73.33,41.0,24.16
477,wamba,58,NG,1582915194,16,8.93,8.6,86.02,5.06
478,podporozhye,100,RU,1582915194,94,60.91,34.17,22.21,5.08
479,tautira,75,PF,1582915194,70,-17.73,-149.15,84.2,4.7
480,tarko-sale,100,RU,1582915194,87,64.92,77.78,19.99,12.08
481,phangnga,20,TH,1582915194,69,8.45,98.53,80.6,6.93
482,krasnyy kholm,98,RU,1582915194,92,58.06,37.12,28.85,8.57
483,booue,100,GA,1582915194,94,-0.09,11.94,76.44,2.53
484,ostrovnoy,50,RU,1582915195,52,68.05,39.51,10.56,5.3
485,jining,23,CN,1582915195,90,35.41,116.58,40.28,4.27
486,bonthe,36,SL,1582915195,69,7.53,-12.51,84.85,11.56
487,khlung,25,TH,1582915195,63,12.45,102.22,82.99,4.9
488,san jose,75,US,1582915050,55,37.34,-121.89,69.01,2.1
489,twin falls,1,US,1582915195,55,42.56,-114.46,45.0,9.17
490,marsa matruh,40,EG,1582915195,62,31.35,27.25,59.0,12.75
491,kalispell,20,US,1582915195,60,48.2,-114.31,44.01,4.7
492,lebork,75,PL,1582915195,86,54.54,17.75,37.0,9.17
493,wanning,99,CN,1582915195,94,18.8,110.4,71.69,3.0
494,biloela,0,AU,1582915195,78,-24.42,150.5,72.03,8.34
495,poso,70,ID,1582915195,89,-1.4,120.75,68.31,1.9
496,brokopondo,52,SR,1582915195,54,4.75,-55.17,86.77,11.9
497,puerto escondido,5,MX,1582915195,69,15.85,-97.07,82.4,6.93
498,saint-francois,90,FR,1582915195,55,46.42,3.91,51.8,3.36
499,dannenberg,75,DE,1582915195,69,53.1,11.09,41.0,4.7
500,klaksvik,100,FO,1582915195,69,62.23,-6.59,37.4,35.57
501,okha,52,RU,1582915195,96,53.57,142.95,-1.12,10.45
502,benghazi,0,LY,1582915195,66,32.12,20.07,60.93,13.44
503,maarianhamina,34,AX,1582915195,79,60.1,19.93,21.2,1.12
504,dakar,0,SN,1582914925,54,14.69,-17.44,93.2,16.11
505,bhuj,89,IN,1582915195,79,23.27,69.67,71.1,11.61
506,taltal,0,CL,1582915196,67,-25.4,-70.48,70.57,9.1
507,netivot,0,IL,1582915196,77,31.42,34.59,61.0,7.92
508,yumen,99,CN,1582915196,47,40.28,97.2,31.62,6.64
509,yinchuan,75,CN,1582915196,33,38.47,106.27,46.58,11.7
510,whitianga,43,NZ,1582915196,94,-36.83,175.7,63.0,3.4
511,mitsamiouli,20,KM,1582915196,79,-11.38,43.28,86.0,9.17
512,elizabethtown,90,US,1582915125,38,37.69,-85.86,44.01,12.75
513,oranjemund,0,NA,1582915196,50,-28.55,16.43,73.9,15.7
514,guanica,40,PR,1582915196,61,17.97,-66.91,84.99,12.75
515,charters towers,33,AU,1582915196,83,-20.1,146.27,76.5,5.75
516,samarkand,7,UZ,1582915196,86,39.65,66.96,37.4,2.24
517,sanford,1,US,1582915196,29,28.8,-81.27,63.0,16.11
518,tazovskiy,100,RU,1582915196,95,67.47,78.7,12.85,7.85
519,iqaluit,20,CA,1582915196,63,63.75,-68.51,-11.0,4.7
520,puerto cabezas,75,NI,1582915196,79,14.04,-83.39,86.0,13.87
521,dymer,89,UA,1582915196,64,50.79,30.3,37.0,6.71
522,kochubey,47,RU,1582915196,57,44.39,46.58,49.42,14.56
523,liuzhou,37,CN,1582915196,79,24.31,109.39,68.49,4.54
524,capela do alto,84,BR,1582915196,72,-23.47,-47.73,72.0,8.99
525,jalu,0,LY,1582915196,42,29.03,21.55,63.95,13.82
526,enshi,97,CN,1582915143,98,30.3,109.48,47.35,1.39
527,tiznit,25,MA,1582915197,30,29.58,-9.5,68.81,5.95
528,yaizu,75,JP,1582915197,75,34.87,138.33,43.0,1.12
529,rudnyy,83,KZ,1582915197,79,52.96,63.12,26.6,22.37
530,kununurra,75,AU,1582915197,88,-15.77,128.73,78.8,10.29
531,chapais,90,CA,1582915197,73,49.78,-74.85,19.4,3.36
532,huilong,99,CN,1582915197,93,31.81,121.66,50.0,6.67
533,inirida,92,CO,1582915197,41,3.87,-67.92,97.7,2.15
534,kropotkin,78,RU,1582915197,72,45.44,40.58,40.14,13.22
535,opuwo,100,NA,1582915197,91,-18.06,13.84,67.78,10.13
536,artyom,100,AZ,1582915197,66,40.47,50.33,51.8,29.97
537,mega,49,ET,1582915197,33,4.05,38.3,75.04,12.24
538,lar,16,IN,1582915197,53,26.2,83.97,65.23,5.68
539,natchitoches,1,US,1582915197,38,31.77,-93.13,63.0,16.11
540,irbeyskoye,100,RU,1582915197,82,55.64,95.45,24.35,15.32
541,flores,100,GT,1582914928,58,16.92,-89.9,72.07,3.96
542,tonantins,100,BR,1582915197,99,-2.87,-67.8,74.71,1.63
543,shakawe,98,BW,1582915197,68,-18.37,21.85,74.8,4.81
544,wum,15,CM,1582915197,30,6.38,10.07,80.4,4.79
545,kaniama,84,CD,1582915197,93,-7.57,24.18,69.89,1.77
546,paracatu,84,BR,1582915197,74,-17.22,-46.87,80.85,5.26
547,kattivakkam,40,IN,1582915197,74,13.22,80.32,81.0,9.17
548,goderich,100,CA,1582915197,88,43.75,-81.72,26.01,25.99
549,caohai,64,CN,1582915198,93,26.87,104.28,45.57,2.64
550,campbellsville,75,US,1582915198,45,37.34,-85.34,44.6,8.05
551,biltine,35,TD,1582915198,15,14.53,20.92,83.55,9.78
552,gulu,88,UG,1582915198,38,2.77,32.3,81.88,2.37
553,mucuri,91,BR,1582915105,71,-18.09,-39.55,83.57,11.77
554,gat,0,IL,1582914961,63,31.61,34.76,62.6,4.7
555,namie,88,JP,1582915198,83,37.48,141.0,33.01,1.99
556,kuznechikha,100,RU,1582915198,91,57.22,42.33,31.01,4.18
557,canavieiras,64,BR,1582915198,62,-15.68,-38.95,84.9,6.6
558,nanyuki,2,KE,1582915198,78,0.02,37.07,60.62,4.97
559,trindade,90,BR,1582915198,88,-16.65,-49.49,75.2,8.05
560,sitka,90,US,1582915198,93,57.05,-135.33,37.4,6.93
561,esfarayen,80,IR,1582915198,80,37.08,57.51,39.2,3.49
562,miri,75,MY,1582915085,94,4.41,114.01,78.8,8.43
563,kemijarvi,0,FI,1582915198,80,66.71,27.43,13.87,2.55
564,ruteng,99,ID,1582915198,98,-8.61,120.47,69.66,2.51
565,svetlaya,14,RU,1582915198,85,46.54,138.33,18.41,4.36
566,rawson,0,AR,1582915198,62,-43.3,-65.1,68.02,11.79
567,pauini,100,BR,1582915198,93,-7.71,-66.98,78.31,3.67
568,ouadda,17,CF,1582915198,20,8.08,22.4,81.54,5.35
569,itacoatiara,74,BR,1582915198,45,-3.14,-58.44,94.03,2.66
570,weligama,92,LK,1582915198,75,5.97,80.42,76.33,9.42
571,okhotsk,57,RU,1582915199,60,59.38,143.3,2.77,7.02
572,olavarria,83,AR,1582915199,15,-36.89,-60.32,92.66,4.65
573,vicuna,20,CL,1582915199,72,-30.03,-70.71,86.0,11.41
574,port hawkesbury,40,CA,1582915199,59,45.62,-61.35,36.0,10.29
575,yuci,0,CN,1582915199,93,37.68,112.73,35.6,4.47
576,japura,64,ID,1582915199,95,-0.32,102.35,74.71,2.53
577,evensk,60,RU,1582915199,72,61.95,159.23,1.33,14.38
578,kaohsiung,40,TW,1582915199,73,22.62,120.31,73.0,1.12
579,qasigiannguit,40,GL,1582915199,43,68.82,-51.19,-7.6,4.7
580,chongwe,79,ZM,1582915199,88,-15.33,28.68,69.8,5.82
581,amudat,9,UG,1582915199,45,1.95,34.95,76.98,11.12
582,rusape,99,ZW,1582915199,91,-18.53,32.13,62.76,4.63
583,lasa,20,IT,1582915199,67,46.62,10.7,42.8,4.7
584,eureka,90,US,1582915143,93,40.8,-124.16,50.0,4.7
585,hayden,1,US,1582915112,65,47.77,-116.79,51.01,6.93
586,umreth,40,IN,1582915199,44,22.7,73.12,78.8,3.36
587,tacuarembo,16,UY,1582915199,25,-31.73,-55.98,87.08,2.24
